[
    {
        "id": 1,
        "title": "Wyspa Sobieszewska - Prom Świbno",
        "place": "Świbno, Wyspa Sobieszewska",
        "description": "Lot dronem przy przeprawie promowej Świbno-Mikoszewo",
        "date": "2026-01-18",
        "lat": 54.333,
        "lng": 18.936,
        "video": "https://www.youtube.com/watch?v=1OYmuUuoKNQ"
    },
    {
        "id": 2,
        "title": "Gdańsk - Sylwester 2025",
        "place": "ul. Porębskiego, Gdańsk",
        "description": "Lot dronem na Sylwestra nad ul. Porębskiego w Gdańsku",
        "date": "2025-12-31",
        "lat": 54.3193,
        "lng": 18.5786,
        "video": "https://youtu.be/fHDLioz3xqk"
    },
    {
        "id": 3,
        "title": "Górki Zachodnie - Wigilia 2025",
        "place": "Górki Zachodnie, Gdańsk",
        "description": "Lot dronem w Wigilię nad Górkami Zachodnimi",
        "date": "2025-12-24",
        "lat": 54.368,
        "lng": 18.771,
        "video": "https://youtu.be/uvLSSp2X2jg"
    },
    {
        "id": 4,
        "title": "Most kolejowy w Tczewie",
        "place": "Tczew, most kolejowy nad Wisłą",
        "description": "Lot dronem nad zabytkowym mostem kolejowym w Tczewie",
        "date": "2025-12-29",
        "lat": 54.093,
        "lng": 18.819,
        "video": "https://youtu.be/oYuIPxc316g"
    },
    {
        "id": 5,
        "title": "Henrykowo - Warmia",
        "place": "Henrykowo, gm. Orneta",
        "description": "Lot dronem nad Henrykowem koło Ornety",
        "date": "2025-12-07",
        "lat": 54.177,
        "lng": 20.158,
        "video": "https://youtu.be/B6TWK4SKy1Y"
    },
    {
        "id": 6,
        "title": "Plaża w Kolbudach",
        "place": "Kolbudy, Jezioro Bielkowskie",
        "description": "Lot dronem nad plażą i kąpieliskiem gminnym w Kolbudach",
        "date": "2025-11-30",
        "lat": 54.275,
        "lng": 18.481,
        "video": "https://youtu.be/g9EXeE9PIzk"
    }
]
